{"data": [{"2": {"_id": "5e568d540c5ef2060b4c0dcf", "patient_info": {"patient_id": 2, "age": 57, "sex": "F", "country": "korea", "religion": "none", "residental_info": {"city": "busan", "district": "\ud574\uc6b4\ub300\uad6c", "lat": 35.1785969384698, "lng": 129.199700145244}}, "infection_info": {"infection_place": {"name": "\ub300\uad6c", "lat": 35.8532271659164, "lng": 128.566581310322}, "infection_type": "place", "infection_factor": 136, "isolation_place": {"name": "\ubd80\uc0b0\uc758\ub8cc\uc6d0", "lat": 35.1872965543253, "lng": 129.059224891471}}, "route": [{"name": "\uc218\uc11c\uc5ed", "lat": 37.4852951142482, "lng": 127.104469788175, "start_time": "2020-02-18T05:00:00z", "end_time": "2020-02-17T15:00:00z"}, {"name": "\ubd80\uc0b0\uc5ed", "lat": 35.1151082632134, "lng": 129.041420256627, "start_time": "2020-02-17T15:00:00z", "end_time": "2020-02-17T15:00:00z"}, {"name": "\uc7a5\uc0b0\uc131\ub2f9", "lat": 35.2057631699487, "lng": 129.125523704084, "start_time": "2020-02-19T01:00:00z", "end_time": "2020-02-19T02:00:00z"}, {"name": "\uc7a5\uc0b0\uba85\uac00", "lat": 35.1991027868075, "lng": 129.119101170432, "start_time": "2020-02-19T02:00:00z", "end_time": "2020-02-19T03:40:00z"}, {"name": "\uc790\uc5f0\ub4dc\ub9bc \ubd80\uc0b0\ubc18\uc5ec\uc810", "lat": 35.1994906708017, "lng": 129.11712194498, "start_time": "2020-02-19T03:53:00z", "end_time": "2020-02-19T04:30:00z"}, {"name": "\uc13c\ud140\ub0b4\uacfc\uc758\uc6d0", "lat": 35.2026858383776, "lng": 129.119918891654, "start_time": "2020-02-20T01:00:00z", "end_time": "2020-02-20T02:00:00z"}, {"name": "\uc6d0\uc628\ub204\ub9ac\uc57d\uad6d", "lat": 35.2026858383776, "lng": 129.119918891654, "start_time": "2020-02-20T02:00:00z", "end_time": "2020-02-20T02:20:00z"}, {"name": "\uc13c\ud140\ub0b4\uacfc\uc758\uc6d0", "lat": 35.2026858383776, "lng": 129.119918891654, "start_time": "2020-02-20T02:20:00z", "end_time": "2020-02-20T02:50:00z"}, {"name": "\ucf54\ub85c\ub09819 \ud574\uc6b4\ub300\ubc31\ubcd1\uc6d0 \uc120\ubcc4\uc9c4\ub8cc\uc18c", "lat": 35.1733359146975, "lng": 129.182183058154, "start_time": "2020-02-21T02:00:00z", "end_time": "2020-02-21T02:00:00z"}]}}, {"3": {"_id": "5e568ff60c5ef2060b4c0dd0", "patient_info": {"patient_id": 3, "age": 20, "sex": "F", "country": "korea", "religion": "none", "residental_info": {"city": "busan", "district": "\ud574\uc6b4\ub300\uad6c", "lat": 35.1785969384698, "lng": 129.199700145244}}, "infection_info": {"infection_place": {"name": "\ub300\uad6c", "lat": 35.8532271659164, "lng": 128.566581310322}, "infection_type": "place", "infection_factor": 16, "isolation_place": {"name": "\ubd80\uc0b0\ub300\ud559\ubcd1\uc6d0", "lat": 35.3287881899928, "lng": 129.006486011007}}, "route": [{"name": "\ubd80\uc0b0\uad11\uc5ed\uc2dc\uad50\uc721\uccad", "lat": 35.1762157665766, "lng": 129.064735978568, "start_time": "2020-02-21T04:30:00z", "end_time": "2020-02-21T05:00:00z"}, {"name": "10\ubd84\ub2e4\uc774\uc5b4\ud2b8\ud790\ub9c1\uc0f5", "lat": 35.1606568998852, "lng": 129.115144728573, "start_time": "2020-02-21T05:00:00z", "end_time": "2020-02-21T06:00:00z"}, {"name": "\ucf54\ub85c\ub09819 BHS\ud55c\uc11c\ubcd1\uc6d0 \uc120\ubcc4\uc9c4\ub8cc\uc18c", "lat": 35.1608998044941, "lng": 129.11320654836, "start_time": "2020-02-21T06:00:00z", "end_time": "2020-02-21T08:40:00z"}, {"name": "\ubd80\uc0b0\ub300\ud559\uad50\ubcd1\uc6d0", "lat": 35.1008243310038, "lng": 129.0187383154, "start_time": "2020-02-22T04:00:00z", "end_time": "2020-02-22T04:00:00z"}]}}, {"4": {"_id": "5e5693c50c5ef2060b4c0dd1", "patient_info": {"patient_id": 4, "age": 22, "sex": "F", "country": "korea", "religion": "ShinCheonJi", "residental_info": {"city": "busan", "district": "\ud574\uc6b4\ub300\uad6c", "lat": 35.1785969384698, "lng": 129.199700145244}}, "infection_info": {"infection_place": {"name": "none", "lat": 36.9465596862886, "lng": 127.014450917838}, "infection_type": "religion", "infection_factor": 8, "isolation_place": {"name": "\ubd80\uc0b0\ub300\ud559\ubcd1\uc6d0", "lat": 35.3287881899928, "lng": 129.006486011007}}, "route": [{"name": "\ub3d9\ub300\uad6c\ud130\ubbf8\ub110", "lat": 35.8779859596367, "lng": 128.630308498358, "start_time": "2020-02-18T10:10:00z", "end_time": "2020-02-18T10:10:00z"}, {"name": "\ud574\uc6b4\ub300\uc2dc\uc678\ubc84\uc2a4\uc815\ub958\uc18c", "lat": 35.164784693786, "lng": 129.160441668232, "start_time": "2020-02-18T11:40:00z", "end_time": "2020-02-18T11:40:00z"}, {"name": "\uc2e0\uc120\uc9c0\uad6d\ubc25", "lat": 35.1863875033203, "lng": 129.203400703248, "start_time": "2020-02-18T12:00:00z", "end_time": "2020-02-18T13:00:00z"}, {"name": "\ub2e4\ube44\uce58\uc548\uacbd \uc88c\ub3d9\uc810", "lat": 35.172604008318, "lng": 129.176285426546, "start_time": "2020-02-18T13:20:00z", "end_time": "2020-02-18T13:30:00z"}, {"name": "CU \ud574\uc6b4\ub300\uacbd\ub0a8\uc120\uacbd\uc810", "lat": 35.1659690245044, "lng": 129.185036878118, "start_time": "2020-02-19T05:00:00z", "end_time": "2020-02-19T05:00:00z"}, {"name": "\uacbd\ub0a8\uc120\uacbd\uc544\ud30c\ud2b8", "lat": 35.1663907505139, "lng": 129.185636363876, "start_time": "2020-02-19T11:00:00z", "end_time": "2020-02-19T11:00:00z"}, {"name": "\ucf54\ub85c\ub09819 \ud574\uc6b4\ub300\uad6c\ubcf4\uac74\uc18c \uc120\ubcc4\uc9c4\ub8cc\uc18c", "lat": 35.1641122033114, "lng": 129.178662018177, "start_time": "2020-02-21T08:45:00z", "end_time": "2020-02-21T08:45:00z"}, {"name": "\ubd80\uc0b0\ub300\ud559\uad50\ubcd1\uc6d0", "lat": 35.1008243310038, "lng": 129.0187383154, "start_time": "2020-02-22T09:45:00z", "end_time": "2020-02-22T09:45:00z"}]}}]}