{"data": [{"59": {"_id": "5e5bba480c5ef2060b4c0e82", "patient_info": {"patient_id": 59, "age": 25, "sex": "F", "country": "korea", "religion": "none", "residental_info": {"city": "busan", "district": "\ubd80\uc0b0 \uc218\uc601\uad6c", "lat": 35.1531932736837, "lng": 129.118976093583}}, "infection_info": {"infection_place": {"name": "\ub300\uad6c", "lat": 35.8532271659164, "lng": 128.566581310322}, "infection_type": "place", "infection_factor": 66, "isolation_place": {"name": "\ubd80\uc0b0\uc758\ub8cc\uc6d0", "lat": 35.1872965543253, "lng": 129.059224891471}}, "route": [{"name": "\uc218\uc601\ucd08\ub4f1\ud559\uad50 \ubcd1\uc124\uc720\uce58\uc6d0", "lat": 35.1654687255178, "lng": 129.111858666739, "start_time": "2020-02-19T23:10:00z", "end_time": "2020-02-20T08:00:00z"}, {"name": "\uc218\uc601\ucd08\ub4f1\ud559\uad50 \ubcd1\uc124\uc720\uce58\uc6d0", "lat": 35.1654687255178, "lng": 129.111858666739, "start_time": "2020-02-20T23:10:00z", "end_time": "2020-02-21T00:30:00z"}, {"name": "\ucf54\ub07c\ub9ac\uc774\ube44\uc778\ud6c4\uacfc\uc758\uc6d0", "lat": 35.1676964059553, "lng": 129.117223421301, "start_time": "2020-02-21T00:35:00z", "end_time": "2020-02-21T00:42:00z"}, {"name": "\uc774\ud654 \uba54\ub514\uceec\uc57d\uad6d", "lat": 35.1677065243706, "lng": 129.117263190884, "start_time": "2020-02-21T00:45:00z", "end_time": "2020-02-21T00:50:00z"}, {"name": "\uc218\uc601\ucd08\ub4f1\ud559\uad50 \ubcd1\uc124\uc720\uce58\uc6d0", "lat": 35.1654687255178, "lng": 129.111858666739, "start_time": "2020-02-21T01:00:00z", "end_time": "2020-02-21T08:00:00z"}, {"name": "\ubaa8\ub9ac\uad6c\uc774\uc9d1", "lat": 35.1606782855276, "lng": 129.191777642649, "start_time": "2020-02-21T08:50:00z", "end_time": "2020-02-21T10:30:00z"}, {"name": "\uc0cc\ub514\ube14\ub8e8", "lat": 35.160664559246, "lng": 129.191540255453, "start_time": "2020-02-21T10:30:00z", "end_time": "2020-02-21T13:20:00z"}, {"name": "M\ucee8\ubca4\uc158\uc6e8\ub529\ud640\ubdd4\ud398", "lat": 35.3390146075982, "lng": 129.02742318632, "start_time": "2020-02-22T03:00:00z", "end_time": "2020-02-22T03:30:00z"}, {"name": "\uc218\uc601\ucd08\ub4f1\ud559\uad50 \ubcd1\uc124\uc720\uce58\uc6d0", "lat": 35.1654687255178, "lng": 129.111858666739, "start_time": "2020-02-24T02:10:00z", "end_time": "2020-02-24T03:00:00z"}, {"name": "\ucf54\ub85c\ub09819 \uc218\uc601\uad6c\ubcf4\uac74\uc18c \uc120\ubcc4\uc9c4\ub8cc\uc18c", "lat": 35.1626441095325, "lng": 129.113431651024, "start_time": "2020-02-24T05:10:00z", "end_time": "2020-02-24T07:40:00z"}, {"name": "\uc774\ucc28\ub3cc \ubd80\uc0b0\uad11\uc548\uc810", "lat": 35.1619713784627, "lng": 129.112993957652, "start_time": "2020-02-24T07:45:00z", "end_time": "2020-02-24T08:13:00z"}, {"name": "\ucf54\ub85c\ub09819 \uc218\uc601\uad6c\ubcf4\uac74\uc18c \uc120\ubcc4\uc9c4\ub8cc\uc18c", "lat": 35.1626441095325, "lng": 129.113431651024, "start_time": "2020-02-25T05:50:00z", "end_time": "2020-02-25T07:00:00z"}, {"name": "\ubcf4\ubbfc\ub0b4\uacfc\uc758\uc6d0", "lat": 35.1655484288104, "lng": 129.114520811593, "start_time": "2020-02-26T03:40:00z", "end_time": "2020-02-26T03:50:00z"}, {"name": "\ucf54\ub85c\ub09819 BHS\ud55c\uc11c\ubcd1\uc6d0 \uc120\ubcc4\uc9c4\ub8cc\uc18c", "lat": 35.1608998044941, "lng": 129.11320654836, "start_time": "2020-02-26T04:00:00z", "end_time": "2020-02-26T05:00:00z"}, {"name": "\ud76c\ub9dd\uc624\ub959\ub3c4\uc57d\uad6d", "lat": 35.1604134789121, "lng": 129.11318957537, "start_time": "2020-02-26T05:05:00z", "end_time": "2020-02-26T05:10:00z"}, {"name": "\ucf54\ub85c\ub09819 BHS\ud55c\uc11c\ubcd1\uc6d0 \uc120\ubcc4\uc9c4\ub8cc\uc18c", "lat": 35.1608998044941, "lng": 129.11320654836, "start_time": "2020-02-26T06:50:00z", "end_time": "2020-02-26T07:00:00z"}]}}, {"60": {"_id": "5e5bbaac0c5ef2060b4c0e83", "patient_info": {"patient_id": 60, "age": 65, "sex": "F", "country": "korea", "religion": "none", "residental_info": {"city": "busan", "district": "\ubd80\uc0b0 \ud574\uc6b4\ub300\uad6c", "lat": 35.1585232170784, "lng": 129.159854668484}}, "infection_info": {"infection_place": {"name": "\ubd80\uc0b0", "lat": 35.1585232170784, "lng": 129.159854668484}, "infection_type": "person", "infection_factor": 2, "isolation_place": {"name": "\ubd80\uc0b0\uc758\ub8cc\uc6d0", "lat": 35.1872965543253, "lng": 129.059224891471}}, "route": [{"name": "\uc0c8\ubcbd\uc774\uc2ac\ub3d9\uc2e0\uad50\ud68c", "lat": 35.199740357124, "lng": 129.10715112111, "start_time": "2020-02-23T01:55:00z", "end_time": "2020-02-23T02:50:00z"}, {"name": "\ucf54\ub85c\ub09819 \ub3d9\ub798\uad6c\ubcf4\uac74\uc18c \uc120\ubcc4\uc9c4\ub8cc\uc18c", "lat": 35.2114120201011, "lng": 129.079853036605, "start_time": "2020-02-26T06:20:00z", "end_time": "2020-02-26T07:00:00z"}]}}, {"61": {"_id": "5e5bbe720c5ef2060b4c0e84", "patient_info": {"patient_id": 61, "age": 44, "sex": "F", "country": "korea", "religion": "none", "residental_info": {"city": "busan", "district": "\ubd80\uc0b0 \ud574\uc6b4\ub300\uad6c", "lat": 35.1585232170784, "lng": 129.159854668484}}, "infection_info": {"infection_place": {"name": "\ubd80\uc0b0", "lat": 35.1585232170784, "lng": 129.159854668484}, "infection_type": "person", "infection_factor": 5, "isolation_place": {"name": "\ud574\uc6b4\ub300\ubc31\ubcd1\uc6d0", "lat": 35.1733359146975, "lng": 129.182183058154}}, "route": [{"name": "\uc218\uc601\ucd08\ub4f1\ud559\uad50 \ubcd1\uc124\uc720\uce58\uc6d0", "lat": 35.1654687255178, "lng": 129.111858666739, "start_time": "2020-02-20T23:00:00z", "end_time": "2020-02-21T08:00:00z"}, {"name": "\ubaa8\ub9ac\uad6c\uc774\uc9d1", "lat": 35.1606782855276, "lng": 129.191777642649, "start_time": "2020-02-21T08:00:00z", "end_time": "2020-02-21T10:21:00z"}, {"name": "\uc0cc\ub514\ube14\ub8e8", "lat": 35.160664559246, "lng": 129.191540255453, "start_time": "2020-02-21T10:30:00z", "end_time": "2020-02-21T13:40:00z"}, {"name": "\ub298\ud3b8\ud55c\ub0b4\uacfc\uc758\uc6d0", "lat": 35.2034620860132, "lng": 129.123342571782, "start_time": "2020-02-24T00:00:00z", "end_time": "2020-02-24T00:38:00z"}, {"name": "\ub3d9\uc9c4\uc57d\uad6d", "lat": 35.2034705844707, "lng": 129.123474541395, "start_time": "2020-02-24T00:40:00z", "end_time": "2020-02-24T00:50:00z"}, {"name": "\uc218\uc601\ucd08\ub4f1\ud559\uad50 \ubcd1\uc124\uc720\uce58\uc6d0", "lat": 35.1654687255178, "lng": 129.111858666739, "start_time": "2020-02-24T23:00:00z", "end_time": "2020-02-25T07:00:00z"}, {"name": "\ucf54\ub85c\ub09819 \ud574\uc6b4\ub300\uad6c\ubcf4\uac74\uc18c \uc120\ubcc4\uc9c4\ub8cc\uc18c", "lat": 35.1641122033114, "lng": 129.178662018177, "start_time": "2020-02-26T23:00:00z", "end_time": "2020-02-27T01:00:00z"}]}}, {"62": {"_id": "5e5bbebf0c5ef2060b4c0e85", "patient_info": {"patient_id": 62, "age": 16, "sex": "M", "country": "korea", "religion": "none", "residental_info": {"city": "busan", "district": "\ubd80\uc0b0 \ub3d9\ub798\uad6c", "lat": 35.2212534758027, "lng": 129.082735370039}}, "infection_info": {"infection_place": {"name": "\ubd80\uc0b0", "lat": 35.1585232170784, "lng": 129.159854668484}, "infection_type": "person", "infection_factor": 3, "isolation_place": {"name": "\ubd80\uc0b0\uc758\ub8cc\uc6d0", "lat": 35.1872965543253, "lng": 129.059224891471}}, "route": [{"name": "\ub3d9\ub798\uad6c \ubcf4\uac74\uc18c", "lat": 35.2114120201011, "lng": 129.079853036605, "start_time": "2020-02-26T12:30:00z", "end_time": "2020-02-26T13:00:00z"}]}}, {"63": {"_id": "5e5bbf0a0c5ef2060b4c0e86", "patient_info": {"patient_id": 63, "age": 31, "sex": "F", "country": "korea", "religion": "none", "residental_info": {"city": "busan", "district": "\ubd80\uc0b0 \ubd81\uad6c", "lat": 35.2522475444927, "lng": 129.04203716797}}, "infection_info": {"infection_place": {"name": "\ubd80\uc0b0", "lat": 35.1585232170784, "lng": 129.159854668484}, "infection_type": "person", "infection_factor": 0, "isolation_place": {"name": "\ubd80\uc0b0\uc758\ub8cc\uc6d0", "lat": 35.1872965543253, "lng": 129.059224891471}}, "route": [{"name": "\ucf54\ub85c\ub09819 \ubd81\uad6c\ubcf4\uac74\uc18c \uc120\ubcc4\uc9c4\ub8cc\uc18c", "lat": 35.239256670063, "lng": 129.014776200464, "start_time": "2020-02-26T23:50:00z", "end_time": "2020-02-27T00:20:00z"}]}}, {"64": {"_id": "5e5bbf520c5ef2060b4c0e87", "patient_info": {"patient_id": 64, "age": 49, "sex": "F", "country": "korea", "religion": "Chatolic", "residental_info": {"city": "busan", "district": "\ubd80\uc0b0 \ub3d9\ub798\uad6c", "lat": 35.2212534758027, "lng": 129.082735370039}}, "infection_info": {"infection_place": {"name": "\uc628\ucc9c\uad50\ud68c", "lat": 35.21598177534, "lng": 129.077176124061}, "infection_type": "religion", "infection_factor": 3, "isolation_place": {"name": "\ubd80\uc0b0\uc758\ub8cc\uc6d0", "lat": 35.1872965543253, "lng": 129.059224891471}}, "route": [{"name": "\ucf54\ub85c\ub09819 \ub3d9\ub798\uad6c\ubcf4\uac74\uc18c \uc120\ubcc4\uc9c4\ub8cc\uc18c", "lat": 35.2114120201011, "lng": 129.079853036605, "start_time": "2020-02-27T02:30:00z", "end_time": "2020-02-27T03:00:00z"}]}}]}