{"data": [{"14": {"_id": "5e5b50e50c5ef2060b4c0e54", "patient_info": {"patient_id": 14, "age": 32, "sex": "M", "country": "korea", "religion": "Chatolic", "residental_info": {"city": "busan", "district": "\ub3d9\ub798\uad6c", "lat": 35.2212534758027, "lng": 129.082735370039}}, "infection_info": {"infection_place": {"name": "\uc628\ucc9c\uad50\ud68c", "lat": 35.21598177534, "lng": 129.077176124061}, "infection_type": "religion", "infection_factor": 31, "isolation_place": {"name": "\ubd80\uc0b0\uc758\ub8cc\uc6d0", "lat": 35.1872965543253, "lng": 129.059224891471}}, "route": [{"name": "\ub300\ud55c\ubbfc\uad6d \uc815\ud615\uc678\uacfc\ubcd1\uc6d0", "lat": 35.2053540853783, "lng": 129.067621157713, "start_time": "2020-02-19T02:00:00z", "end_time": "2020-02-19T04:00:00z"}, {"name": "\ubbf8\ub798\uc601\uc0c1\uc758\ud559\uacfc\uc758\uc6d0", "lat": 35.2010984229125, "lng": 129.085347242377, "start_time": "2020-02-19T07:00:00z", "end_time": "2020-02-19T09:20:00z"}, {"name": "\ub300\ud55c\ubbfc\uad6d \uc815\ud615\uc678\uacfc\ubcd1\uc6d0", "lat": 35.2053540853783, "lng": 129.067621157713, "start_time": "2020-02-19T09:00:00z", "end_time": "2020-02-19T09:20:00z"}, {"name": "\ubbf8\ub0a8\uc815\uc57d\uad6d", "lat": 35.2053292389366, "lng": 129.067598568827, "start_time": "2020-02-19T09:20:00z", "end_time": "2020-02-19T09:30:00z"}, {"name": "\uc628\ucc9c\uad50\ud68c", "lat": 35.21598177534, "lng": 129.077176124061, "start_time": "2020-02-19T09:20:00z", "end_time": "2020-02-19T13:00:00z"}, {"name": "\uace0\ucd0c\ubcf4\uc308\ub3fc\uc9c0\uad6d\ubc25", "lat": 35.2058396207957, "lng": 129.078995019444, "start_time": "2020-02-19T13:00:00z", "end_time": "2020-02-19T13:00:00z"}, {"name": "\uc628\ucc9c\uad50\ud68c", "lat": 35.21598177534, "lng": 129.077176124061, "start_time": "2020-02-20T03:30:00z", "end_time": "2020-02-20T04:00:00z"}, {"name": "\ubb38\ub77c\uc6b4\uc9c0", "lat": 35.1535932538432, "lng": 129.061337541979, "start_time": "2020-02-20T04:00:00z", "end_time": "2020-02-20T04:30:00z"}, {"name": "\uac13\ud30c\uc2a4\uc2dc \uc11c\uba74\uc810", "lat": 35.1555408142618, "lng": 129.061487635773, "start_time": "2020-02-20T04:40:00z", "end_time": "2020-02-20T05:20:00z"}, {"name": "\uacbd\uc131\ucf54\ud398 \uc11c\uba74\uc810", "lat": 35.153351433959, "lng": 129.060932043985, "start_time": "2020-02-20T05:30:00z", "end_time": "2020-02-20T08:00:00z"}, {"name": "\ucf54\ub85c\ub09819 \ub3d9\ub798\uad6c\ubcf4\uac74\uc18c \uc120\ubcc4\uc9c4\ub8cc\uc18c", "lat": 35.2114120201011, "lng": 129.079853036605, "start_time": "2020-02-21T00:00:00z", "end_time": "2020-02-21T01:00:00z"}, {"name": "\ubc15\uc57d\uad6d", "lat": 35.2111000657528, "lng": 129.079757236063, "start_time": "2020-02-21T01:00:00z", "end_time": "2020-02-21T01:00:00z"}, {"name": "\ub3d9\ub798\ubd04\uc0b0\ubd80\uc778\uacfc\uc758\uc6d0", "lat": 35.2124826165236, "lng": 129.078382633795, "start_time": "2020-02-21T06:20:00z", "end_time": "2020-02-21T07:40:00z"}, {"name": "\ucc38\ub098\ubb34\uc22f\ubd88\uad6c\uc774", "lat": 35.2270138035983, "lng": 129.085654551395, "start_time": "2020-02-21T08:30:00z", "end_time": "2020-02-21T09:00:00z"}, {"name": "\ucf54\ub85c\ub09819 \ub300\ub3d9\ubcd1\uc6d0 \uc120\ubcc4\uc9c4\ub8cc\uc18c", "lat": 35.2042360924945, "lng": 129.080223332621, "start_time": "2020-02-22T00:00:00z", "end_time": "2020-02-22T00:00:00z"}]}}, {"15": {"_id": "5e5b529a0c5ef2060b4c0e55", "patient_info": {"patient_id": 15, "age": 19, "sex": "M", "country": "korea", "religion": "Chatolic", "residental_info": {"city": "busan", "district": "\ubd80\uc0b0 \ub3d9\ub798\uad6c", "lat": 35.2212534758027, "lng": 129.082735370039}}, "infection_info": {"infection_place": {"name": "\uc628\ucc9c\uad50\ud68c", "lat": 35.21598177534, "lng": 129.077176124061}, "infection_type": "religion", "infection_factor": 31, "isolation_place": {"name": "\ubd80\uc0b0\uc758\ub8cc\uc6d0", "lat": 35.1872965543253, "lng": 129.059224891471}}, "route": [{"name": "\ub354\ub180\ub2e4\uc8fc\ub2c8\uc5b4\uce74\ud398 \uc0ac\uc9c1\uc810", "lat": 35.1958269358324, "lng": 129.060388742933, "start_time": "2020-02-20T06:00:00z", "end_time": "2020-02-20T10:00:00z"}, {"name": "\uc2a4\ud0c0\ubba4\uc9c1\ub3d9\uc804\ub178\ub798\uc5f0\uc2b5\uc7a5", "lat": 35.1961825364855, "lng": 129.060674376208, "start_time": "2020-02-20T10:00:00z", "end_time": "2020-02-20T10:30:00z"}, {"name": "\uc0bc\uc131\uc11c\uc6b8\ub0b4\uacfc", "lat": 35.1985855975935, "lng": 129.05735590413, "start_time": "2020-02-21T06:00:00z", "end_time": "2020-02-21T07:00:00z"}, {"name": "\ucf54\ub85c\ub09819 \ub3d9\ub798\uad6c\ubcf4\uac74\uc18c \uc120\ubcc4\uc9c4\ub8cc\uc18c", "lat": 35.2114120201011, "lng": 129.079853036605, "start_time": "2020-02-23T04:00:00z", "end_time": "2020-02-23T04:00:00z"}]}}, {"16": {"_id": "5e5b54840c5ef2060b4c0e56", "patient_info": {"patient_id": 16, "age": 33, "sex": "M", "country": "korea", "religion": "Chatolic", "residental_info": {"city": "busan", "district": "\ubd80\uc0b0 \uae08\uc815\uad6c", "lat": 35.2454243820506, "lng": 129.063681936853}}, "infection_info": {"infection_place": {"name": "\uc628\ucc9c\uad50\ud68c", "lat": 35.21598177534, "lng": 129.077176124061}, "infection_type": "religion", "infection_factor": 20, "isolation_place": {"name": "\ubd80\uc0b0\uc758\ub8cc\uc6d0", "lat": 35.1872965543253, "lng": 129.059224891471}}, "route": [{"name": "\uc628\ucc9c\uc7a5\uc5ed \ubd80\uc0b01\ud638\uc120", "lat": 35.2202705693472, "lng": 129.086435133803, "start_time": "2020-02-18T22:24:00z", "end_time": "2020-02-18T22:50:00z"}, {"name": "\ubd80\uc0b0\uc5ed", "lat": 35.1151082632134, "lng": 129.041420256627, "start_time": "2020-02-18T22:24:00z", "end_time": "2020-02-18T22:50:00z"}, {"name": "\uba54\ub9ac\ub180\ubcd1\uc6d0", "lat": 35.1075808290625, "lng": 129.032463779997, "start_time": "2020-02-18T23:15:00z", "end_time": "2020-02-19T08:30:00z"}, {"name": "\uc911\uc559\uc5ed \ubd80\uc0b01\ud638\uc120", "lat": 35.1037232153142, "lng": 129.036363924327, "start_time": "2020-02-19T08:45:00z", "end_time": "2020-02-19T09:15:00z"}, {"name": "\uc628\ucc9c\uc7a5\uc5ed \ubd80\uc0b01\ud638\uc120", "lat": 35.2202705693472, "lng": 129.086435133803, "start_time": "2020-02-19T08:45:00z", "end_time": "2020-02-19T09:15:00z"}, {"name": "\uc628\ucc9c\uc7a5\uc5ed \ubd80\uc0b01\ud638\uc120", "lat": 35.2202705693472, "lng": 129.086435133803, "start_time": "2020-02-19T22:24:00z", "end_time": "2020-02-19T22:50:00z"}, {"name": "\ubd80\uc0b0\uc5ed", "lat": 35.1151082632134, "lng": 129.041420256627, "start_time": "2020-02-19T22:24:00z", "end_time": "2020-02-19T22:50:00z"}, {"name": "\uba54\ub9ac\ub180\ubcd1\uc6d0", "lat": 35.1075808290625, "lng": 129.032463779997, "start_time": "2020-02-19T23:15:00z", "end_time": "2020-02-20T08:30:00z"}, {"name": "\uc911\uc559\uc5ed \ubd80\uc0b01\ud638\uc120", "lat": 35.1037232153142, "lng": 129.036363924327, "start_time": "2020-02-20T08:43:00z", "end_time": "2020-02-20T09:14:00z"}, {"name": "\uba85\ub95c\uc5ed \ubd80\uc0b01\ud638\uc120", "lat": 35.2125752875352, "lng": 129.079702639717, "start_time": "2020-02-20T08:43:00z", "end_time": "2020-02-20T09:14:00z"}, {"name": "\uc628\ucc9c\uad50\ud68c", "lat": 35.21598177534, "lng": 129.077176124061, "start_time": "2020-02-20T09:05:00z", "end_time": "2020-02-20T09:10:00z"}, {"name": "\ubaa9\ud654\uae30\uc0ac\uc2dd\ub2f9", "lat": 35.2163248078241, "lng": 129.079240484831, "start_time": "2020-02-20T09:10:00z", "end_time": "2020-02-20T10:00:00z"}, {"name": "\uc628\ucc9c\uc7a5\uc5ed \ubd80\uc0b01\ud638\uc120", "lat": 35.2202705693472, "lng": 129.086435133803, "start_time": "2020-02-20T22:29:00z", "end_time": "2020-02-20T22:55:00z"}, {"name": "\ubd80\uc0b0\uc5ed", "lat": 35.1151082632134, "lng": 129.041420256627, "start_time": "2020-02-20T22:29:00z", "end_time": "2020-02-20T22:55:00z"}, {"name": "\uba54\ub9ac\ub180\ubcd1\uc6d0", "lat": 35.1075808290625, "lng": 129.032463779997, "start_time": "2020-02-20T23:20:00z", "end_time": "2020-02-21T08:00:00z"}, {"name": "\ubd80\uc0b0\uc5ed", "lat": 35.1151082632134, "lng": 129.041420256627, "start_time": "2020-02-21T08:21:00z", "end_time": "2020-02-21T08:49:00z"}, {"name": "\uc628\ucc9c\uc7a5\uc5ed \ubd80\uc0b01\ud638\uc120", "lat": 35.2202705693472, "lng": 129.086435133803, "start_time": "2020-02-21T08:21:00z", "end_time": "2020-02-21T08:49:00z"}, {"name": "\ub3d9\ub798\uad6c \ubcf4\uac74\uc18c", "lat": 35.2114120201011, "lng": 129.079853036605, "start_time": "2020-02-22T02:30:00z", "end_time": "2020-02-22T04:00:00z"}]}}, {"17": {"_id": "5e5b554e0c5ef2060b4c0e57", "patient_info": {"patient_id": 17, "age": 42, "sex": "M", "country": "korea", "religion": "none", "residental_info": {"city": "busan", "district": "\ubd80\uc0b0 \ub0a8\uad6c", "lat": 35.1006495749289, "lng": 129.124487940263}}, "infection_info": {"infection_place": {"name": "\uccad\ub3c4", "lat": 35.6839809696742, "lng": 128.71878233032}, "infection_type": "place", "infection_factor": 1, "isolation_place": {"name": "\ubd80\uc0b0\ub300\ud559\uad50\ubcd1\uc6d0", "lat": 35.1008243310038, "lng": 129.0187383154}}, "route": [{"name": "\ubd80\uc0b0\ub300\ud559\uad50\ubcd1\uc6d0", "lat": 35.1008243310038, "lng": 129.0187383154, "start_time": "2020-02-23T14:00:00z", "end_time": "2020-02-23T14:00:00z"}]}}]}