{"data": [{"22": {"_id": "5e5b68ed0c5ef2060b4c0e5d", "patient_info": {"patient_id": 22, "age": 21, "sex": "F", "country": "korea", "religion": "Chatolic", "residental_info": {"city": "busan", "district": "\ubd80\uc0b0 \uac15\uc11c\uad6c", "lat": 35.0228463926296, "lng": 128.817200975593}}, "infection_info": {"infection_place": {"name": "\uc628\ucc9c\uad50\ud68c", "lat": 35.21598177534, "lng": 129.077176124061}, "infection_type": "religion", "infection_factor": 19, "isolation_place": {"name": "\ubd80\uc0b0\ub300\ud559\uad50\ubcd1\uc6d0", "lat": 35.1008243310038, "lng": 129.0187383154}}, "route": [{"name": "\uc2a4\ud0c0\ud544\ub4dc\uc2dc\ud2f0 \uba85\uc9c0", "lat": 35.0932419550055, "lng": 128.918295757288, "start_time": "2020-02-19T08:30:00z", "end_time": "2020-02-19T09:40:00z"}, {"name": "\uc704\uc564\ub300\uc6b0\ub9ac\ud070\ub0b4\uacfc\uc758\uc6d0", "lat": 35.0840468369518, "lng": 128.903156922187, "start_time": "2020-02-20T04:20:00z", "end_time": "2020-02-20T05:30:00z"}, {"name": "\ud070\ubcf4\ub78c\uc57d\uad6d", "lat": 35.0840468369518, "lng": 128.903156922187, "start_time": "2020-02-20T05:30:00z", "end_time": "2020-02-20T05:45:00z"}, {"name": "\ucf54\ub85c\ub09819 \uac15\uc11c\uad6c\ubcf4\uac74\uc18c \uc120\ubcc4\uc9c4\ub8cc\uc18c", "lat": 35.1805425788658, "lng": 128.957066854015, "start_time": "2020-02-23T05:00:00z", "end_time": "2020-02-23T05:30:00z"}]}}, {"23": {"_id": "5e5b69780c5ef2060b4c0e5e", "patient_info": {"patient_id": 23, "age": 23, "sex": "M", "country": "korea", "religion": "Chatolic", "residental_info": {"city": "busan", "district": "\ubd80\uc0b0 \uc0ac\ud558\uad6c", "lat": 35.0465263488422, "lng": 128.962741189119}}, "infection_info": {"infection_place": {"name": "\uc628\ucc9c\uad50\ud68c", "lat": 35.21598177534, "lng": 129.077176124061}, "infection_type": "religion", "infection_factor": 1, "isolation_place": {"name": "\ubd80\uc0b0\ub300\ud559\uad50\ubcd1\uc6d0", "lat": 35.1008243310038, "lng": 129.0187383154}}, "route": [{"name": "GS25 \uba85\ub95c\uc911\uc559\uc810", "lat": 35.2125633586695, "lng": 129.078718495405, "start_time": "2020-02-21T00:10:00z", "end_time": "2020-02-21T00:15:00z"}, {"name": "\uc628\ucc9c\uad50\ud68c", "lat": 35.21598177534, "lng": 129.077176124061, "start_time": "2020-02-21T00:30:00z", "end_time": "2020-02-21T00:30:00z"}, {"name": "\uc628\ucc9c\uad50\ud68c", "lat": 35.21598177534, "lng": 129.077176124061, "start_time": "2020-02-22T00:30:00z", "end_time": "2020-02-22T00:30:00z"}, {"name": "\ucf54\ub85c\ub09819 \uc0ac\ud558\uad6c\ubcf4\uac74\uc18c \uc120\ubcc4\uc9c4\ub8cc\uc18c", "lat": 35.0941572529117, "lng": 128.959553446034, "start_time": "2020-02-23T01:30:00z", "end_time": "2020-02-23T02:40:00z"}]}}, {"24": {"_id": "5e5b69fd0c5ef2060b4c0e5f", "patient_info": {"patient_id": 24, "age": 27, "sex": "F", "country": "korea", "religion": "ShinCheonJi", "residental_info": {"city": "busan", "district": "\ubd80\uc0b0 \uc0ac\ud558\uad6c", "lat": 35.0465263488422, "lng": 128.962741189119}}, "infection_info": {"infection_place": {"name": "\uc2e0\ucc9c\uc9c0", "lat": 35.8396958488919, "lng": 128.566554207975}, "infection_type": "religion", "infection_factor": 2, "isolation_place": {"name": "\ubd80\uc0b0\ub300\ud559\uad50\ubcd1\uc6d0", "lat": 35.1008243310038, "lng": 129.0187383154}}, "route": [{"name": "\ucf54\ub85c\ub09819 \uc0ac\ud558\uad6c\ubcf4\uac74\uc18c \uc120\ubcc4\uc9c4\ub8cc\uc18c", "lat": 35.0941572529117, "lng": 128.959553446034, "start_time": "2020-02-21T06:20:00z", "end_time": "2020-02-21T06:20:00z"}]}}, {"25": {"_id": "5e5b6abb0c5ef2060b4c0e60", "patient_info": {"patient_id": 25, "age": 44, "sex": "F", "country": "korea", "religion": "none", "residental_info": {"city": "busan", "district": "\ubd80\uc0b0 \ud574\uc6b4\ub300\uad6c", "lat": 35.1585232170784, "lng": 129.159854668484}}, "infection_info": {"infection_place": {"name": "\ubd80\uc0b0", "lat": 35.1585232170784, "lng": 129.159854668484}, "infection_type": "person", "infection_factor": 9, "isolation_place": {"name": "\ubd80\uc0b0\ub300\ud559\uad50\ubcd1\uc6d0", "lat": 35.1008243310038, "lng": 129.0187383154}}, "route": [{"name": "\uc7a5\uc0b0\ucd08\ub4f1\ud559\uad50", "lat": 35.2001215785345, "lng": 129.119896144689, "start_time": "2020-02-21T01:20:00z", "end_time": "2020-02-21T01:40:00z"}, {"name": "\ubc18\uc5ec1\ub3d9\uc8fc\ubbfc\uc13c\ud130", "lat": 35.2011025051349, "lng": 129.118942343241, "start_time": "2020-02-21T02:00:00z", "end_time": "2020-02-21T02:20:00z"}, {"name": "\ud0d1\ub9c8\ud2b8 \ubc18\uc5ec\uc810", "lat": 35.204132615389, "lng": 129.119842323366, "start_time": "2020-02-21T12:00:00z", "end_time": "2020-02-21T12:20:00z"}, {"name": "\ucf54\ub85c\ub09819 \ud574\uc6b4\ub300\uad6c\ubcf4\uac74\uc18c \uc120\ubcc4\uc9c4\ub8cc\uc18c", "lat": 35.1641122033114, "lng": 129.178662018177, "start_time": "2020-02-23T06:00:00z", "end_time": "2020-02-23T06:00:00z"}]}}, {"26": {"_id": "5e5b6b570c5ef2060b4c0e61", "patient_info": {"patient_id": 26, "age": 27, "sex": "M", "country": "korea", "religion": "Chatolic", "residental_info": {"city": "busan", "district": "\ubd80\uc0b0 \ud574\uc6b4\ub300\uad6c", "lat": 35.1585232170784, "lng": 129.159854668484}}, "infection_info": {"infection_place": {"name": "\uc628\ucc9c\uad50\ud68c", "lat": 35.21598177534, "lng": 129.077176124061}, "infection_type": "religion", "infection_factor": 7, "isolation_place": {"name": "\ubd80\uc0b0\ub300\ud559\uad50\ubcd1\uc6d0", "lat": 35.1008243310038, "lng": 129.0187383154}}, "route": [{"name": "\uc2a4\ud0c0\ubc85\uc2a4 \uba85\ub95c\uc5ed\uc810", "lat": 35.2125757942975, "lng": 129.078309245104, "start_time": "2020-02-20T23:30:00z", "end_time": "2020-02-21T03:00:00z"}, {"name": "\ubaa9\ud654\uae30\uc0ac\uc2dd\ub2f9", "lat": 35.2163248078241, "lng": 129.079240484831, "start_time": "2020-02-21T03:10:00z", "end_time": "2020-02-21T03:40:00z"}, {"name": "\uc2a4\ud0c0\ubc85\uc2a4 \uba85\ub95c\uc5ed\uc810", "lat": 35.2125757942975, "lng": 129.078309245104, "start_time": "2020-02-21T04:00:00z", "end_time": "2020-02-21T10:30:00z"}, {"name": "GS25 \uba85\ub95c\uc911\uc559\uc810", "lat": 35.2125633586695, "lng": 129.078718495405, "start_time": "2020-02-21T10:40:00z", "end_time": "2020-02-21T11:00:00z"}, {"name": "\ucf54\ub85c\ub09819 \ud574\uc6b4\ub300\uad6c\ubcf4\uac74\uc18c \uc120\ubcc4\uc9c4\ub8cc\uc18c", "lat": 35.1641122033114, "lng": 129.178662018177, "start_time": "2020-02-23T02:20:00z", "end_time": "2020-02-23T02:20:00z"}]}}, {"27": {"_id": "5e5b6de30c5ef2060b4c0e62", "patient_info": {"patient_id": 27, "age": 28, "sex": "F", "country": "korea", "religion": "none", "residental_info": {"city": "busan", "district": "\ubd80\uc0b0 \uc218\uc601\uad6c", "lat": 35.1531932736837, "lng": 129.118976093583}}, "infection_info": {"infection_place": {"name": "\ub300\uad6c", "lat": 35.8532271659164, "lng": 128.566581310322}, "infection_type": "place", "infection_factor": 8, "isolation_place": {"name": "\ubd80\uc0b0\ub300\ud559\uad50\ubcd1\uc6d0", "lat": 35.1008243310038, "lng": 129.0187383154}}, "route": [{"name": "\ud22c\uc378\ud50c\ub808\uc774\uc2a4 \ubd80\uc0b0\uad11\uc548\uc5ed\uc810", "lat": 35.1574409319574, "lng": 129.113427588173, "start_time": "2020-02-20T02:00:00z", "end_time": "2020-02-20T10:00:00z"}, {"name": "\ubc15\ucc2c\ubcf5\ub0b4\uacfc\uc758\uc6d0", "lat": 35.1576629402204, "lng": 129.1127892245, "start_time": "2020-02-21T04:30:00z", "end_time": "2020-02-21T05:00:00z"}, {"name": "\ucf54\ub85c\ub09819 \uc218\uc601\uad6c\ubcf4\uac74\uc18c \uc120\ubcc4\uc9c4\ub8cc\uc18c", "lat": 35.1626441095325, "lng": 129.113431651024, "start_time": "2020-02-21T05:20:00z", "end_time": "2020-02-21T05:40:00z"}, {"name": "\ud22c\uc378\ud50c\ub808\uc774\uc2a4 \ubd80\uc0b0\uad11\uc548\uc5ed\uc810", "lat": 35.1574409319574, "lng": 129.113427588173, "start_time": "2020-02-21T06:00:00z", "end_time": "2020-02-21T08:40:00z"}, {"name": "\ubb34\ubb34\ub3c8\uae4c\uc2a4 \uad11\uc548\uc810", "lat": 35.157377872729, "lng": 129.114045922054, "start_time": "2020-02-21T09:00:00z", "end_time": "2020-02-21T10:00:00z"}, {"name": "\ud22c\uc378\ud50c\ub808\uc774\uc2a4 \ubd80\uc0b0\uad11\uc548\uc5ed\uc810", "lat": 35.1574409319574, "lng": 129.113427588173, "start_time": "2020-02-21T10:20:00z", "end_time": "2020-02-21T14:00:00z"}, {"name": "\ucf54\ub85c\ub09819 \uc88b\uc740\uac15\uc548\ubcd1\uc6d0 \uc120\ubcc4\uc9c4\ub8cc\uc18c", "lat": 35.1501580801167, "lng": 129.110725523948, "start_time": "2020-02-23T02:45:00z", "end_time": "2020-02-23T03:30:00z"}]}}]}