{"data": [{"28": {"_id": "5e5b6ed20c5ef2060b4c0e63", "patient_info": {"patient_id": 28, "age": 65, "sex": "F", "country": "korea", "religion": "none", "residental_info": {"city": "busan", "district": "\ubd80\uc0b0 \uc218\uc601\uad6c", "lat": 35.1531932736837, "lng": 129.118976093583}}, "infection_info": {"infection_place": {"name": "\ubd80\uc0b0", "lat": 35.1585232170784, "lng": 129.159854668484}, "infection_type": "person", "infection_factor": 6, "isolation_place": {"name": "\ubd80\uc0b0\ub300\ud559\uad50\ubcd1\uc6d0", "lat": 35.1008243310038, "lng": 129.0187383154}}, "route": [{"name": "\ud55c\uad6d\uad50\uc591\ubb38\ud654\ub178\ub798\uad50\uc2e4", "lat": 35.1689842825378, "lng": 129.116545677641, "start_time": "2020-02-21T07:00:00z", "end_time": "2020-02-21T11:30:00z"}, {"name": "\ud55c\uad6d\uad50\uc591\ubb38\ud654\ub178\ub798\uad50\uc2e4", "lat": 35.1689842825378, "lng": 129.116545677641, "start_time": "2020-02-22T06:00:00z", "end_time": "2020-02-22T08:30:00z"}, {"name": "\uc774\ub9c8\ud2b8\ud2b8\ub808\uc774\ub354\uc2a4 \uc11c\uba74\uc810", "lat": 35.1638844259765, "lng": 129.052642621379, "start_time": "2020-02-22T09:00:00z", "end_time": "2020-02-22T10:00:00z"}, {"name": "\ucf54\ub85c\ub09819 \uc88b\uc740\uac15\uc548\ubcd1\uc6d0 \uc120\ubcc4\uc9c4\ub8cc\uc18c", "lat": 35.1501580801167, "lng": 129.110725523948, "start_time": "2020-02-23T01:40:00z", "end_time": "2020-02-23T03:00:00z"}]}}, {"29": {"_id": "5e5b701a0c5ef2060b4c0e64", "patient_info": {"patient_id": 29, "age": 21, "sex": "M", "country": "korea", "religion": "none", "residental_info": {"city": "busan", "district": "\ubd80\uc0b0 \ub3d9\ub798\uad6c", "lat": 35.2212534758027, "lng": 129.082735370039}}, "infection_info": {"infection_place": {"name": "none", "lat": 36.9465596862886, "lng": 127.014450917838}, "infection_type": "none", "infection_factor": 27, "isolation_place": {"name": "\ubd80\uc0b0\ub300\ud559\uad50\ubcd1\uc6d0", "lat": 35.1008243310038, "lng": 129.0187383154}}, "route": [{"name": "\ubd80\uc0b0\uc9c0\ubc29\ubcd1\ubb34\uccad", "lat": 35.1734345402495, "lng": 129.103596406532, "start_time": "2020-02-20T23:44:00z", "end_time": "2020-02-21T00:53:00z"}, {"name": "\uc138\ube10\uc2a4\ud0c0\ucf54\uc778\ub178\ub798\uc5f0\uc2b5\uc7a5 \uc591\uc815\uc5ed\uc810", "lat": 35.1697204658319, "lng": 129.069366509961, "start_time": "2020-02-21T01:30:00z", "end_time": "2020-02-21T02:50:00z"}, {"name": "\uc138\ube10\uc2a4\ud0c0\ucf54\uc778\ub178\ub798\uc5f0\uc2b5\uc7a5 \uc591\uc815\uc5ed\uc810", "lat": 35.1697204658319, "lng": 129.069366509961, "start_time": "2020-02-21T02:50:00z", "end_time": "2020-02-21T09:00:00z"}, {"name": "3POP PC\ubc29", "lat": 35.1962705526415, "lng": 129.061221118765, "start_time": "2020-02-21T09:30:00z", "end_time": "2020-02-21T11:30:00z"}, {"name": "\uc138\ube10\uc2a4\ud0c0\ucf54\uc778\ub178\ub798\uc5f0\uc2b5\uc7a5 \uc591\uc815\uc5ed\uc810", "lat": 35.1697204658319, "lng": 129.069366509961, "start_time": "2020-02-22T03:20:00z", "end_time": "2020-02-22T05:20:00z"}, {"name": "\uc6b0\uc815 \uc11c\uba742\ud638\uc810", "lat": 35.1562060048052, "lng": 129.062009172214, "start_time": "2020-02-22T05:20:00z", "end_time": "2020-02-22T06:00:00z"}, {"name": "\uc138\ube10\uc2a4\ud0c0\ucf54\uc778\ub178\ub798\uc5f0\uc2b5\uc7a5 \uc591\uc815\uc5ed\uc810", "lat": 35.1697204658319, "lng": 129.069366509961, "start_time": "2020-02-22T06:00:00z", "end_time": "2020-02-22T09:00:00z"}, {"name": "\uc5f0\uc81c\uad6c\ubcf4\uac74\uc18c", "lat": 35.1768314143914, "lng": 129.079103192178, "start_time": "2020-02-22T15:00:00z", "end_time": "2020-02-22T15:00:00z"}]}}, {"30": {"_id": "5e5b72500c5ef2060b4c0e65", "patient_info": {"patient_id": 30, "age": 27, "sex": "M", "country": "korea", "religion": "Chatolic", "residental_info": {"city": "busan", "district": "\ubd80\uc0b0 \uae08\uc815\uad6c", "lat": 35.2454243820506, "lng": 129.063681936853}}, "infection_info": {"infection_place": {"name": "\uc628\ucc9c\uad50\ud68c", "lat": 35.21598177534, "lng": 129.077176124061}, "infection_type": "religion", "infection_factor": 21, "isolation_place": {"name": "\ubd80\uc0b0\ub300\ud559\uad50\ubcd1\uc6d0", "lat": 35.1008243310038, "lng": 129.0187383154}}, "route": [{"name": "\ubc94\uc5b4\uc0ac\uc5ed \ubd80\uc0b01\ud638\uc120", "lat": 35.2730641846992, "lng": 129.092641133427, "start_time": "2020-02-20T22:58:00z", "end_time": "2020-02-20T23:44:00z"}, {"name": "\uc911\uc559\uc5ed \ubd80\uc0b01\ud638\uc120", "lat": 35.1037232153142, "lng": 129.036363924327, "start_time": "2020-02-20T22:58:00z", "end_time": "2020-02-20T23:44:00z"}, {"name": "\ub3d9\uc9c4\uc120\ubc15(\uc8fc)", "lat": 35.1069291998785, "lng": 129.035421643434, "start_time": "2020-02-20T23:48:00z", "end_time": "2020-02-21T03:00:00z"}, {"name": "\uccad\uc9c4\ub3d9 \uccad\uad6d\uc7a5", "lat": 35.1068579377374, "lng": 129.037731553488, "start_time": "2020-02-21T03:10:00z", "end_time": "2020-02-21T03:50:00z"}, {"name": "\ub3d9\uc9c4\uc120\ubc15(\uc8fc)", "lat": 35.1069291998785, "lng": 129.035421643434, "start_time": "2020-02-21T04:00:00z", "end_time": "2020-02-21T09:30:00z"}, {"name": "\ud314\ub808\ub4dc\uc2dc\uc988", "lat": 35.1602233060212, "lng": 129.166584443581, "start_time": "2020-02-21T10:30:00z", "end_time": "2020-02-21T10:30:00z"}, {"name": "\ud314\ub808\ub4dc\uc2dc\uc988", "lat": 35.1602233060212, "lng": 129.166584443581, "start_time": "2020-02-21T15:00:00z", "end_time": "2020-02-22T01:30:00z"}, {"name": "\uae08\uc815\uad6c\ubcf4\uac74\uc18c", "lat": 35.2420536771383, "lng": 129.092454562246, "start_time": "2020-02-23T02:40:00z", "end_time": "2020-02-23T03:40:00z"}]}}, {"31": {"_id": "5e5b80380c5ef2060b4c0e66", "patient_info": {"patient_id": 31, "age": 22, "sex": "F", "country": "korea", "religion": "Chatolic", "residental_info": {"city": "busan", "district": "\ubd80\uc0b0 \ub3d9\ub798\uad6c", "lat": 35.2212534758027, "lng": 129.082735370039}}, "infection_info": {"infection_place": {"name": "\uc628\ucc9c\uad50\ud68c", "lat": 35.21598177534, "lng": 129.077176124061}, "infection_type": "religion", "infection_factor": 3, "isolation_place": {"name": "\ubd80\uc0b0\ubc31\ubcd1\uc6d0", "lat": 35.1463238934834, "lng": 129.020835985136}}, "route": [{"name": "\ub86f\ub370\ub9c8\ud2b8 \ub3d9\ub798\uc810", "lat": 35.2122177252256, "lng": 129.077225142954, "start_time": "2020-02-21T08:00:00z", "end_time": "2020-02-21T09:00:00z"}, {"name": "\uc0bc\uc9c4\uc5b4\ubb35 \ub3d9\ub798\uc810", "lat": 35.2117990813168, "lng": 129.077464824672, "start_time": "2020-02-21T09:05:00z", "end_time": "2020-02-21T09:20:00z"}, {"name": "\ucf54\ub85c\ub09819 \ub3d9\ub798\uad6c\ubcf4\uac74\uc18c \uc120\ubcc4\uc9c4\ub8cc\uc18c", "lat": 35.2114120201011, "lng": 129.079853036605, "start_time": "2020-02-23T03:00:00z", "end_time": "2020-02-23T05:30:00z"}]}}, {"32": {"_id": "5e5b80980c5ef2060b4c0e67", "patient_info": {"patient_id": 32, "age": 21, "sex": "F", "country": "korea", "religion": "Chatolic", "residental_info": {"city": "busan", "district": "\ubd80\uc0b0 \ub3d9\ub798\uad6c", "lat": 35.2212534758027, "lng": 129.082735370039}}, "infection_info": {"infection_place": {"name": "\uc628\ucc9c\uad50\ud68c", "lat": 35.21598177534, "lng": 129.077176124061}, "infection_type": "religion", "infection_factor": 0, "isolation_place": {"name": "\ubd80\uc0b0\ubc31\ubcd1\uc6d0", "lat": 35.1463238934834, "lng": 129.020835985136}}, "route": [{"name": "\ub3d9\ub798\uad6c \ubcf4\uac74\uc18c", "lat": 35.2114120201011, "lng": 129.079853036605, "start_time": "2020-02-22T05:00:00z", "end_time": "2020-02-22T07:30:00z"}, {"name": "\ub3d9\ub798\uad6c \ubcf4\uac74\uc18c", "lat": 35.2114120201011, "lng": 129.079853036605, "start_time": "2020-02-23T05:10:00z", "end_time": "2020-02-23T07:15:00z"}]}}, {"33": {"_id": "5e5b82870c5ef2060b4c0e68", "patient_info": {"patient_id": 33, "age": 20, "sex": "F", "country": "korea", "religion": "Chatolic", "residental_info": {"city": "busan", "district": "\ubd80\uc0b0 \ub3d9\ub798\uad6c", "lat": 35.2212534758027, "lng": 129.082735370039}}, "infection_info": {"infection_place": {"name": "\uc628\ucc9c\uad50\ud68c", "lat": 35.21598177534, "lng": 129.077176124061}, "infection_type": "religion", "infection_factor": 0, "isolation_place": {"name": "\ubd80\uc0b0\ubc31\ubcd1\uc6d0", "lat": 35.1463238934834, "lng": 129.020835985136}}, "route": [{"name": "\ubd80\uc0b0\uc6b0\ub9ac\ub4e4\ubcd1\uc6d0", "lat": 35.2219409244058, "lng": 129.085515914121, "start_time": "2020-02-21T23:00:00z", "end_time": "2020-02-22T04:00:00z"}, {"name": "KB\uad6d\ubbfc\uc740\ud589ATM \uc628\ucc9c\ub3d9\uc810", "lat": 35.2220247396404, "lng": 129.08462635179, "start_time": "2020-02-22T04:10:00z", "end_time": "2020-02-22T04:15:00z"}, {"name": "\ub3c4\ub9ac\ub9c8\ub9ac \ubcf8\uc810", "lat": 35.2210901491019, "lng": 129.084632092625, "start_time": "2020-02-22T04:16:00z", "end_time": "2020-02-22T04:50:00z"}, {"name": "\ud0d1\uc138\uc77c\ub9c8\ud2b8 \uc628\ucc9c\uc810", "lat": 35.2155989355679, "lng": 129.077429905635, "start_time": "2020-02-22T13:15:00z", "end_time": "2020-02-22T13:25:00z"}, {"name": "\ucf54\ub85c\ub09819 \ub3d9\ub798\uad6c\ubcf4\uac74\uc18c \uc120\ubcc4\uc9c4\ub8cc\uc18c", "lat": 35.2114120201011, "lng": 129.079853036605, "start_time": "2020-02-23T06:00:00z", "end_time": "2020-02-23T06:00:00z"}]}}]}